{"type":"FeatureCollection","features":[{"type":"Feature","geometry":{"type":"Point","coordinates":[4.883333333,52.366666666]},"properties":{"countryLabel":"Royaume des Pays-Bas","capitalLabel":"Amsterdam"}},{"type":"Feature","geometry":{"type":"Point","coordinates":[35.225555555,31.778888888]},"properties":{"countryLabel":"Israël","capitalLabel":"Jérusalem"}},{"type":"Feature","geometry":{"type":"Point","coordinates":[90.394444444,23.728888888]},"properties":{"countryLabel":"Bangladesh","capitalLabel":"Dacca"}},{"type":"Feature","geometry":{"type":"Point","coordinates":[73.036944444,33.698888888]},"properties":{"countryLabel":"Pakistan","capitalLabel":"Islamabad"}},{"type":"Feature","geometry":{"type":"Point","coordinates":[120.977222222,14.595833333]},"properties":{"countryLabel":"Philippines","capitalLabel":"Manille"}},{"type":"Feature","geometry":{"type":"Point","coordinates":[54.396944444,24.451111111]},"properties":{"countryLabel":"Émirats arabes unis","capitalLabel":"Abou Dabi"}},{"type":"Feature","geometry":{"type":"Point","coordinates":[44.366111111,33.315277777]},"properties":{"countryLabel":"Irak","capitalLabel":"Bagdad"}},{"type":"Feature","geometry":{"type":"Point","coordinates":[12.568888888,55.676111111]},"properties":{"countryLabel":"Royaume du Danemark","capitalLabel":"Copenhague"}},{"type":"Feature","geometry":{"type":"Point","coordinates":[105.84117,21.0245]},"properties":{"countryLabel":"Vietnam","capitalLabel":"Hanoï"}},{"type":"Feature","geometry":{"type":"Point","coordinates":[100.516666666,13.75]},"properties":{"countryLabel":"Thaïlande","capitalLabel":"Bangkok"}},{"type":"Feature","geometry":{"type":"Point","coordinates":[101.695277777,3.147777777]},"properties":{"countryLabel":"Malaisie","capitalLabel":"Kuala Lumpur"}},{"type":"Feature","geometry":{"type":"Point","coordinates":[121.5625,25.0375]},"properties":{"countryLabel":"Taïwan","capitalLabel":"Taipei"}},{"type":"Feature","geometry":{"type":"Point","coordinates":[31.5825,4.853888888]},"properties":{"countryLabel":"Soudan du Sud","capitalLabel":"Djouba"}},{"type":"Feature","geometry":{"type":"Point","coordinates":[32.52654,15.60308]},"properties":{"countryLabel":"Soudan","capitalLabel":"Khartoum"}},{"type":"Feature","geometry":{"type":"Point","coordinates":[45.341944444,2.039166666]},"properties":{"countryLabel":"Somalie","capitalLabel":"Mogadiscio"}},{"type":"Feature","geometry":{"type":"Point","coordinates":[44.2,15.35]},"properties":{"countryLabel":"Yémen","capitalLabel":"Sanaa"}},{"type":"Feature","geometry":{"type":"Point","coordinates":[85.32,27.71]},"properties":{"countryLabel":"Népal","capitalLabel":"Katmandou"}},{"type":"Feature","geometry":{"type":"Point","coordinates":[-84.079580555,9.932511111]},"properties":{"countryLabel":"Costa Rica","capitalLabel":"San José"}},{"type":"Feature","geometry":{"type":"Point","coordinates":[-86.273766666,12.154372222]},"properties":{"countryLabel":"Nicaragua","capitalLabel":"Managua"}},{"type":"Feature","geometry":{"type":"Point","coordinates":[-6.836111111,34.025277777]},"properties":{"countryLabel":"Maroc","capitalLabel":"Rabat"}},{"type":"Feature","geometry":{"type":"Point","coordinates":[10.18,36.800833333]},"properties":{"countryLabel":"Tunisie","capitalLabel":"Tunis"}},{"type":"Feature","geometry":{"type":"Point","coordinates":[13.18746,32.87519]},"properties":{"countryLabel":"Libye","capitalLabel":"Tripoli"}},{"type":"Feature","geometry":{"type":"Point","coordinates":[43.148055555,11.595]},"properties":{"countryLabel":"Djibouti","capitalLabel":"Djibouti"}},{"type":"Feature","geometry":{"type":"Point","coordinates":[51.389722222,35.688888888]},"properties":{"countryLabel":"Iran","capitalLabel":"Téhéran"}},{"type":"Feature","geometry":{"type":"Point","coordinates":[38.916666666,15.333333333]},"properties":{"countryLabel":"Érythrée","capitalLabel":"Asmara"}},{"type":"Feature","geometry":{"type":"Point","coordinates":[2.1175,13.515]},"properties":{"countryLabel":"Niger","capitalLabel":"Niamey"}},{"type":"Feature","geometry":{"type":"Point","coordinates":[-15.9785,18.08581]},"properties":{"countryLabel":"Mauritanie","capitalLabel":"Nouakchott"}},{"type":"Feature","geometry":{"type":"Point","coordinates":[46.71,24.65]},"properties":{"countryLabel":"Arabie saoudite","capitalLabel":"Riyad"}},{"type":"Feature","geometry":{"type":"Point","coordinates":[-7.992222222,12.645833333]},"properties":{"countryLabel":"Mali","capitalLabel":"Bamako"}},{"type":"Feature","geometry":{"type":"Point","coordinates":[-17.432,14.672555555]},"properties":{"countryLabel":"Sénégal","capitalLabel":"Dakar"}},{"type":"Feature","geometry":{"type":"Point","coordinates":[-16.5775,13.453055555]},"properties":{"countryLabel":"Gambie","capitalLabel":"Banjul"}},{"type":"Feature","geometry":{"type":"Point","coordinates":[-13.712222222,9.509166666]},"properties":{"countryLabel":"Guinée","capitalLabel":"Conakry"}},{"type":"Feature","geometry":{"type":"Point","coordinates":[-10.804722222,6.310555555]},"properties":{"countryLabel":"Liberia","capitalLabel":"Monrovia"}},{"type":"Feature","geometry":{"type":"Point","coordinates":[-23.509155555,14.917719444]},"properties":{"countryLabel":"Cap-Vert","capitalLabel":"Praia"}},{"type":"Feature","geometry":{"type":"Point","coordinates":[36.291944444,33.513055555]},"properties":{"countryLabel":"Syrie","capitalLabel":"Damas"}},{"type":"Feature","geometry":{"type":"Point","coordinates":[-5.274166666,6.816111111]},"properties":{"countryLabel":"Côte d'Ivoire","capitalLabel":"Yamoussoukro"}},{"type":"Feature","geometry":{"type":"Point","coordinates":[-1.5275,12.368611111]},"properties":{"countryLabel":"Burkina Faso","capitalLabel":"Ouagadougou"}},{"type":"Feature","geometry":{"type":"Point","coordinates":[-13.235555555,8.487222222]},"properties":{"countryLabel":"Sierra Leone","capitalLabel":"Freetown"}},{"type":"Feature","geometry":{"type":"Point","coordinates":[7.491388888,9.055555555]},"properties":{"countryLabel":"Nigeria","capitalLabel":"Abuja"}},{"type":"Feature","geometry":{"type":"Point","coordinates":[1.215833333,6.13]},"properties":{"countryLabel":"Togo","capitalLabel":"Lomé"}},{"type":"Feature","geometry":{"type":"Point","coordinates":[2.616666666,6.483333333]},"properties":{"countryLabel":"Bénin","capitalLabel":"Porto-Novo"}},{"type":"Feature","geometry":{"type":"Point","coordinates":[35.933333333,31.95]},"properties":{"countryLabel":"Jordanie","capitalLabel":"Amman"}},{"type":"Feature","geometry":{"type":"Point","coordinates":[11.518055555,3.857777777]},"properties":{"countryLabel":"Cameroun","capitalLabel":"Yaoundé"}},{"type":"Feature","geometry":{"type":"Point","coordinates":[35.513055555,33.886944444]},"properties":{"countryLabel":"Liban","capitalLabel":"Beyrouth"}},{"type":"Feature","geometry":{"type":"Point","coordinates":[9.4544,0.3901]},"properties":{"countryLabel":"Gabon","capitalLabel":"Libreville"}},{"type":"Feature","geometry":{"type":"Point","coordinates":[58.592222222,23.613888888]},"properties":{"countryLabel":"Oman","capitalLabel":"Mascate"}},{"type":"Feature","geometry":{"type":"Point","coordinates":[18.562833333,4.37325]},"properties":{"countryLabel":"République centrafricaine","capitalLabel":"Bangui"}},{"type":"Feature","geometry":{"type":"Point","coordinates":[15.311944444,-4.321944444]},"properties":{"countryLabel":"République démocratique du Congo","capitalLabel":"Kinshasa"}},{"type":"Feature","geometry":{"type":"Point","coordinates":[15.271111111,-4.269444444]},"properties":{"countryLabel":"République du Congo","capitalLabel":"Brazzaville"}},{"type":"Feature","geometry":{"type":"Point","coordinates":[30.060555555,-1.953611111]},"properties":{"countryLabel":"Rwanda","capitalLabel":"Kigali"}},{"type":"Feature","geometry":{"type":"Point","coordinates":[51.529436111,25.286205555]},"properties":{"countryLabel":"Qatar","capitalLabel":"Doha"}},{"type":"Feature","geometry":{"type":"Point","coordinates":[35.746,-6.1835]},"properties":{"countryLabel":"Tanzanie","capitalLabel":"Dodoma"}},{"type":"Feature","geometry":{"type":"Point","coordinates":[33.783333333,-13.983333333]},"properties":{"countryLabel":"Malawi","capitalLabel":"Lilongwe"}},{"type":"Feature","geometry":{"type":"Point","coordinates":[33.78725,-13.96692]},"properties":{"countryLabel":"Malawi","capitalLabel":"Lilongwe"}},{"type":"Feature","geometry":{"type":"Point","coordinates":[28.283333333,-15.416666666]},"properties":{"countryLabel":"Zambie","capitalLabel":"Lusaka"}},{"type":"Feature","geometry":{"type":"Point","coordinates":[32.581111111,0.313611111]},"properties":{"countryLabel":"Ouganda","capitalLabel":"Kampala"}},{"type":"Feature","geometry":{"type":"Point","coordinates":[13.234444444,-8.838333333]},"properties":{"countryLabel":"Angola","capitalLabel":"Luanda"}},{"type":"Feature","geometry":{"type":"Point","coordinates":[43.253611111,-11.703611111]},"properties":{"countryLabel":"Comores","capitalLabel":"Moroni"}},{"type":"Feature","geometry":{"type":"Point","coordinates":[27.48,-29.31]},"properties":{"countryLabel":"Lesotho","capitalLabel":"Maseru"}},{"type":"Feature","geometry":{"type":"Point","coordinates":[47.525,-18.91]},"properties":{"countryLabel":"Royaume merina","capitalLabel":"Antananarivo"}},{"type":"Feature","geometry":{"type":"Point","coordinates":[25.908611111,-24.656944444]},"properties":{"countryLabel":"Botswana","capitalLabel":"Gaborone"}},{"type":"Feature","geometry":{"type":"Point","coordinates":[31.052222222,-17.829166666]},"properties":{"countryLabel":"Zimbabwe","capitalLabel":"Harare"}},{"type":"Feature","geometry":{"type":"Point","coordinates":[57.498888888,-20.161944444]},"properties":{"countryLabel":"Maurice","capitalLabel":"Port-Louis"}},{"type":"Feature","geometry":{"type":"Point","coordinates":[6.733333333,0.333333333]},"properties":{"countryLabel":"Sao Tomé-et-Principe","capitalLabel":"São Tomé"}},{"type":"Feature","geometry":{"type":"Point","coordinates":[17.083611111,-22.57]},"properties":{"countryLabel":"Namibie","capitalLabel":"Windhoek"}},{"type":"Feature","geometry":{"type":"Point","coordinates":[55.454444444,-4.623611111]},"properties":{"countryLabel":"Seychelles","capitalLabel":"Victoria"}},{"type":"Feature","geometry":{"type":"Point","coordinates":[69.165833333,34.532777777]},"properties":{"countryLabel":"Afghanistan","capitalLabel":"Kaboul"}},{"type":"Feature","geometry":{"type":"Point","coordinates":[126.99,37.56]},"properties":{"countryLabel":"Corée du Sud","capitalLabel":"Séoul"}},{"type":"Feature","geometry":{"type":"Point","coordinates":[89.63367,27.47135]},"properties":{"countryLabel":"Bhoutan","capitalLabel":"Thimphou"}},{"type":"Feature","geometry":{"type":"Point","coordinates":[114.916666666,4.916666666]},"properties":{"countryLabel":"Brunei","capitalLabel":"Bandar Seri Begawan"}},{"type":"Feature","geometry":{"type":"Point","coordinates":[102.63,17.98]},"properties":{"countryLabel":"Laos","capitalLabel":"Vientiane"}},{"type":"Feature","geometry":{"type":"Point","coordinates":[73.508333333,4.175]},"properties":{"countryLabel":"Maldives","capitalLabel":"Malé"}},{"type":"Feature","geometry":{"type":"Point","coordinates":[74.566666666,42.866666666]},"properties":{"countryLabel":"Kirghizistan","capitalLabel":"Bichkek"}},{"type":"Feature","geometry":{"type":"Point","coordinates":[68.786388888,38.573055555]},"properties":{"countryLabel":"Tadjikistan","capitalLabel":"Douchanbé"}},{"type":"Feature","geometry":{"type":"Point","coordinates":[58.383333333,37.95]},"properties":{"countryLabel":"Turkménistan","capitalLabel":"Achgabat"}},{"type":"Feature","geometry":{"type":"Point","coordinates":[21.166666666,42.666666666]},"properties":{"countryLabel":"Kosovo","capitalLabel":"Pristina"}},{"type":"Feature","geometry":{"type":"Point","coordinates":[-63.043333333,18.024166666]},"properties":{"countryLabel":"Saint-Martin","capitalLabel":"Philipsburg"}},{"type":"Feature","geometry":{"type":"Point","coordinates":[-169.921,-19.056]},"properties":{"countryLabel":"Niue","capitalLabel":"Alofi"}},{"type":"Feature","geometry":{"type":"Point","coordinates":[79.860555555,6.926666666]},"properties":{"countryLabel":"Sri Lanka","capitalLabel":"Colombo"}},{"type":"Feature","geometry":{"type":"Point","coordinates":[96.115,19.7475]},"properties":{"countryLabel":"Birmanie","capitalLabel":"Naypyidaw"}},{"type":"Feature","geometry":{"type":"Point","coordinates":[79.916388888,6.9]},"properties":{"countryLabel":"Sri Lanka","capitalLabel":"Sri Jayawardenapura"}},{"type":"Feature","geometry":{"type":"Point","coordinates":[-70.035833333,12.518611111]},"properties":{"countryLabel":"Aruba","capitalLabel":"Oranjestad"}},{"type":"Feature","geometry":{"type":"Point","coordinates":[45.033333333,12.8]},"properties":{"countryLabel":"Yémen","capitalLabel":"Aden"}},{"type":"Feature","geometry":{"type":"Point","coordinates":[35.201666666,31.896944444]},"properties":{"countryLabel":"État de Palestine","capitalLabel":"Ramallah"}},{"type":"Feature","geometry":{"type":"Point","coordinates":[29.925,-3.428333333]},"properties":{"countryLabel":"Burundi","capitalLabel":"Gitega"}},{"type":"Feature","geometry":{"type":"Point","coordinates":[-159.771,-21.207]},"properties":{"countryLabel":"Îles Cook","capitalLabel":"Avarua"}},{"type":"Feature","geometry":{"type":"Point","coordinates":[35.23388,31.78336]},"properties":{"countryLabel":"État de Palestine","capitalLabel":"Jérusalem-Est"}},{"type":"Feature","geometry":{"type":"Point","coordinates":[-89.191427777,13.698963888]},"properties":{"countryLabel":"Salvador","capitalLabel":"San Salvador"}},{"type":"Feature","geometry":{"type":"Point","coordinates":[-69.936111111,18.4625]},"properties":{"countryLabel":"République dominicaine","capitalLabel":"Saint-Domingue"}},{"type":"Feature","geometry":{"type":"Point","coordinates":[134.624167,7.500556]},"properties":{"countryLabel":"Palaos","capitalLabel":"Ngerulmud"}},{"type":"Feature","geometry":{"type":"Point","coordinates":[-77.036666666,38.895]},"properties":{"countryLabel":"États-Unis","capitalLabel":"Washington"}},{"type":"Feature","geometry":{"type":"Point","coordinates":[13.383333333,52.516666666]},"properties":{"countryLabel":"Allemagne","capitalLabel":"Berlin"}},{"type":"Feature","geometry":{"type":"Point","coordinates":[7.44743,46.94798]},"properties":{"countryLabel":"Suisse","capitalLabel":"Berne"}},{"type":"Feature","geometry":{"type":"Point","coordinates":[-0.1275,51.507222222]},"properties":{"countryLabel":"Royaume-Uni","capitalLabel":"Londres"}},{"type":"Feature","geometry":{"type":"Point","coordinates":[31.235833333,30.044444444]},"properties":{"countryLabel":"Égypte","capitalLabel":"Le Caire"}},{"type":"Feature","geometry":{"type":"Point","coordinates":[2.352222222,48.856666666]},"properties":{"countryLabel":"France","capitalLabel":"Paris"}},{"type":"Feature","geometry":{"type":"Point","coordinates":[25.28,54.687222222]},"properties":{"countryLabel":"Lituanie","capitalLabel":"Vilnius"}},{"type":"Feature","geometry":{"type":"Point","coordinates":[12.482777777,41.893055555]},"properties":{"countryLabel":"Italie","capitalLabel":"Rome"}},{"type":"Feature","geometry":{"type":"Point","coordinates":[4.351666666,50.846666666]},"properties":{"countryLabel":"Belgique","capitalLabel":"Bruxelles"}},{"type":"Feature","geometry":{"type":"Point","coordinates":[69.279722222,41.311111111]},"properties":{"countryLabel":"Ouzbékistan","capitalLabel":"Tachkent"}},{"type":"Feature","geometry":{"type":"Point","coordinates":[21.011111111,52.23]},"properties":{"countryLabel":"Pologne","capitalLabel":"Varsovie"}},{"type":"Feature","geometry":{"type":"Point","coordinates":[103.8,1.3]},"properties":{"countryLabel":"Singapour","capitalLabel":"Singapour"}},{"type":"Feature","geometry":{"type":"Point","coordinates":[21.431666666,41.996111111]},"properties":{"countryLabel":"Macédoine du Nord","capitalLabel":"Skopje"}},{"type":"Feature","geometry":{"type":"Point","coordinates":[14.506111111,46.051388888]},"properties":{"countryLabel":"Slovénie","capitalLabel":"Ljubljana"}},{"type":"Feature","geometry":{"type":"Point","coordinates":[23.321726,42.697886]},"properties":{"countryLabel":"Bulgarie","capitalLabel":"Sofia"}},{"type":"Feature","geometry":{"type":"Point","coordinates":[10.738888888,59.913333333]},"properties":{"countryLabel":"Norvège","capitalLabel":"Oslo"}},{"type":"Feature","geometry":{"type":"Point","coordinates":[-9.139016,38.708042]},"properties":{"countryLabel":"Portugal","capitalLabel":"Lisbonne"}},{"type":"Feature","geometry":{"type":"Point","coordinates":[37.6175,55.750555555]},"properties":{"countryLabel":"Russie","capitalLabel":"Moscou"}},{"type":"Feature","geometry":{"type":"Point","coordinates":[4.883333333,52.366666666]},"properties":{"countryLabel":"Pays-Bas","capitalLabel":"Amsterdam"}},{"type":"Feature","geometry":{"type":"Point","coordinates":[116.407526,39.90403]},"properties":{"countryLabel":"République populaire de Chine","capitalLabel":"Pékin"}},{"type":"Feature","geometry":{"type":"Point","coordinates":[77.208888888,28.613888888]},"properties":{"countryLabel":"Inde","capitalLabel":"New Delhi"}},{"type":"Feature","geometry":{"type":"Point","coordinates":[14.421388888,50.0875]},"properties":{"countryLabel":"Tchéquie","capitalLabel":"Prague"}},{"type":"Feature","geometry":{"type":"Point","coordinates":[-56.166666666,-34.866666666]},"properties":{"countryLabel":"Uruguay","capitalLabel":"Montevideo"}},{"type":"Feature","geometry":{"type":"Point","coordinates":[15.977222222,45.813055555]},"properties":{"countryLabel":"Croatie","capitalLabel":"Zagreb"}},{"type":"Feature","geometry":{"type":"Point","coordinates":[-58.381944444,-34.599722222]},"properties":{"countryLabel":"Argentine","capitalLabel":"Buenos Aires"}},{"type":"Feature","geometry":{"type":"Point","coordinates":[-99.13589,19.353773]},"properties":{"countryLabel":"Mexique","capitalLabel":"Mexico"}},{"type":"Feature","geometry":{"type":"Point","coordinates":[139.691666666,35.689444444]},"properties":{"countryLabel":"Japon","capitalLabel":"Tokyo"}},{"type":"Feature","geometry":{"type":"Point","coordinates":[-68.133333333,-16.495833333]},"properties":{"countryLabel":"Bolivie","capitalLabel":"La Paz"}},{"type":"Feature","geometry":{"type":"Point","coordinates":[71.433333333,51.133333333]},"properties":{"countryLabel":"Kazakhstan","capitalLabel":"Astana"}},{"type":"Feature","geometry":{"type":"Point","coordinates":[23.728055555,37.984166666]},"properties":{"countryLabel":"Grèce","capitalLabel":"Athènes"}},{"type":"Feature","geometry":{"type":"Point","coordinates":[-66.933333333,10.5]},"properties":{"countryLabel":"Venezuela","capitalLabel":"Caracas"}},{"type":"Feature","geometry":{"type":"Point","coordinates":[-90.513333333,14.641666666]},"properties":{"countryLabel":"Guatemala","capitalLabel":"Guatemala"}},{"type":"Feature","geometry":{"type":"Point","coordinates":[-82.358888888,23.136666666]},"properties":{"countryLabel":"Cuba","capitalLabel":"La Havane"}},{"type":"Feature","geometry":{"type":"Point","coordinates":[16.3725,48.208333333]},"properties":{"countryLabel":"Autriche","capitalLabel":"Vienne"}},{"type":"Feature","geometry":{"type":"Point","coordinates":[12.568888888,55.676111111]},"properties":{"countryLabel":"Danemark","capitalLabel":"Copenhague"}},{"type":"Feature","geometry":{"type":"Point","coordinates":[18.068611111,59.329444444]},"properties":{"countryLabel":"Suède","capitalLabel":"Stockholm"}},{"type":"Feature","geometry":{"type":"Point","coordinates":[24.9375,60.170833333]},"properties":{"countryLabel":"Finlande","capitalLabel":"Helsinki"}},{"type":"Feature","geometry":{"type":"Point","coordinates":[-6.260277777,53.349722222]},"properties":{"countryLabel":"Irlande","capitalLabel":"Dublin"}},{"type":"Feature","geometry":{"type":"Point","coordinates":[-21.935,64.1475]},"properties":{"countryLabel":"Islande","capitalLabel":"Reykjavik"}},{"type":"Feature","geometry":{"type":"Point","coordinates":[24.745,59.437222222]},"properties":{"countryLabel":"Estonie","capitalLabel":"Tallinn"}},{"type":"Feature","geometry":{"type":"Point","coordinates":[24.106944444,56.9475]},"properties":{"countryLabel":"Lettonie","capitalLabel":"Riga"}},{"type":"Feature","geometry":{"type":"Point","coordinates":[17.112777777,48.144722222]},"properties":{"countryLabel":"Slovaquie","capitalLabel":"Bratislava"}},{"type":"Feature","geometry":{"type":"Point","coordinates":[19.040833333,47.498333333]},"properties":{"countryLabel":"Hongrie","capitalLabel":"Budapest"}},{"type":"Feature","geometry":{"type":"Point","coordinates":[6.132777777,49.610555555]},"properties":{"countryLabel":"Luxembourg","capitalLabel":"Luxembourg"}},{"type":"Feature","geometry":{"type":"Point","coordinates":[9.522222222,47.140555555]},"properties":{"countryLabel":"Liechtenstein","capitalLabel":"Vaduz"}},{"type":"Feature","geometry":{"type":"Point","coordinates":[104.921027777,11.569583333]},"properties":{"countryLabel":"Cambodge","capitalLabel":"Phnom Penh"}},{"type":"Feature","geometry":{"type":"Point","coordinates":[1.522222222,42.507222222]},"properties":{"countryLabel":"Andorre","capitalLabel":"Andorre-la-Vieille"}},{"type":"Feature","geometry":{"type":"Point","coordinates":[-75.695,45.424722222]},"properties":{"countryLabel":"Canada","capitalLabel":"Ottawa"}},{"type":"Feature","geometry":{"type":"Point","coordinates":[44.514444444,40.181388888]},"properties":{"countryLabel":"Arménie","capitalLabel":"Erevan"}},{"type":"Feature","geometry":{"type":"Point","coordinates":[27.561837,53.902246]},"properties":{"countryLabel":"Biélorussie","capitalLabel":"Minsk"}},{"type":"Feature","geometry":{"type":"Point","coordinates":[-77.338611111,25.078055555]},"properties":{"countryLabel":"Bahamas","capitalLabel":"Nassau"}},{"type":"Feature","geometry":{"type":"Point","coordinates":[-3.703333333,40.416944444]},"properties":{"countryLabel":"Espagne","capitalLabel":"Madrid"}},{"type":"Feature","geometry":{"type":"Point","coordinates":[-74.08175,4.60971]},"properties":{"countryLabel":"Colombie","capitalLabel":"Bogota"}},{"type":"Feature","geometry":{"type":"Point","coordinates":[-47.882777777,-15.793888888]},"properties":{"countryLabel":"Brésil","capitalLabel":"Brasilia"}},{"type":"Feature","geometry":{"type":"Point","coordinates":[-70.65,-33.4375]},"properties":{"countryLabel":"Chili","capitalLabel":"Santiago"}},{"type":"Feature","geometry":{"type":"Point","coordinates":[-78.5125,-0.22]},"properties":{"countryLabel":"Équateur","capitalLabel":"Quito"}},{"type":"Feature","geometry":{"type":"Point","coordinates":[-65.26,-19.0475]},"properties":{"countryLabel":"Bolivie","capitalLabel":"Sucre"}},{"type":"Feature","geometry":{"type":"Point","coordinates":[-57.634444444,-25.28]},"properties":{"countryLabel":"Paraguay","capitalLabel":"Asuncion"}},{"type":"Feature","geometry":{"type":"Point","coordinates":[149.126944444,-35.293055555]},"properties":{"countryLabel":"Australie","capitalLabel":"Canberra"}},{"type":"Feature","geometry":{"type":"Point","coordinates":[-87.204008333,14.105713888]},"properties":{"countryLabel":"Honduras","capitalLabel":"Tegucigalpa"}},{"type":"Feature","geometry":{"type":"Point","coordinates":[3.058611111,36.776388888]},"properties":{"countryLabel":"Algérie","capitalLabel":"Alger"}},{"type":"Feature","geometry":{"type":"Point","coordinates":[38.736944444,9.027222222]},"properties":{"countryLabel":"Éthiopie","capitalLabel":"Addis-Abeba"}},{"type":"Feature","geometry":{"type":"Point","coordinates":[106.8275,-6.175]},"properties":{"countryLabel":"Indonésie","capitalLabel":"Jakarta"}},{"type":"Feature","geometry":{"type":"Point","coordinates":[32.83869,39.93576]},"properties":{"countryLabel":"Turquie","capitalLabel":"Ankara"}},{"type":"Feature","geometry":{"type":"Point","coordinates":[15.05,12.11]},"properties":{"countryLabel":"Tchad","capitalLabel":"N'Djaména"}},{"type":"Feature","geometry":{"type":"Point","coordinates":[-0.1969,5.55602]},"properties":{"countryLabel":"Ghana","capitalLabel":"Accra"}},{"type":"Feature","geometry":{"type":"Point","coordinates":[33.365,35.1725]},"properties":{"countryLabel":"Chypre","capitalLabel":"Nicosie"}},{"type":"Feature","geometry":{"type":"Point","coordinates":[36.817222222,-1.286388888]},"properties":{"countryLabel":"Kenya","capitalLabel":"Nairobi"}},{"type":"Feature","geometry":{"type":"Point","coordinates":[50.5775,26.225]},"properties":{"countryLabel":"Bahreïn","capitalLabel":"Manama"}},{"type":"Feature","geometry":{"type":"Point","coordinates":[28.188055555,-25.746388888]},"properties":{"countryLabel":"Afrique du Sud","capitalLabel":"Pretoria"}},{"type":"Feature","geometry":{"type":"Point","coordinates":[18.423888888,-33.925277777]},"properties":{"countryLabel":"Afrique du Sud","capitalLabel":"Le Cap"}},{"type":"Feature","geometry":{"type":"Point","coordinates":[49.835183333,40.366655555]},"properties":{"countryLabel":"Azerbaïdjan","capitalLabel":"Bakou"}},{"type":"Feature","geometry":{"type":"Point","coordinates":[125.578333333,-8.553611111]},"properties":{"countryLabel":"Timor oriental","capitalLabel":"Dili"}},{"type":"Feature","geometry":{"type":"Point","coordinates":[-58.150833333,6.805833333]},"properties":{"countryLabel":"Guyana","capitalLabel":"Georgetown"}},{"type":"Feature","geometry":{"type":"Point","coordinates":[18.413055555,43.856388888]},"properties":{"countryLabel":"Bosnie-Herzégovine","capitalLabel":"Sarajevo"}},{"type":"Feature","geometry":{"type":"Point","coordinates":[125.7475,39.016666666]},"properties":{"countryLabel":"Corée du Nord","capitalLabel":"Pyongyang"}},{"type":"Feature","geometry":{"type":"Point","coordinates":[26.097777777,44.413361111]},"properties":{"countryLabel":"Roumanie","capitalLabel":"Bucarest"}},{"type":"Feature","geometry":{"type":"Point","coordinates":[19.817777777,41.328888888]},"properties":{"countryLabel":"Albanie","capitalLabel":"Tirana"}},{"type":"Feature","geometry":{"type":"Point","coordinates":[106.905515,47.921357]},"properties":{"countryLabel":"Mongolie","capitalLabel":"Oulan-Bator"}},{"type":"Feature","geometry":{"type":"Point","coordinates":[19.262777777,42.441388888]},"properties":{"countryLabel":"Monténégro","capitalLabel":"Podgorica"}},{"type":"Feature","geometry":{"type":"Point","coordinates":[174.777222222,-41.288888888]},"properties":{"countryLabel":"Nouvelle-Zélande","capitalLabel":"Wellington"}},{"type":"Feature","geometry":{"type":"Point","coordinates":[14.5125,35.897777777]},"properties":{"countryLabel":"Malte","capitalLabel":"La Valette"}},{"type":"Feature","geometry":{"type":"Point","coordinates":[166.920867,-0.5477]},"properties":{"countryLabel":"Nauru","capitalLabel":"Yaren"}},{"type":"Feature","geometry":{"type":"Point","coordinates":[179.117361111,-8.504777777]},"properties":{"countryLabel":"Tuvalu","capitalLabel":"Funafuti"}},{"type":"Feature","geometry":{"type":"Point","coordinates":[-76.793055555,17.971388888]},"properties":{"countryLabel":"Jamaïque","capitalLabel":"Kingston"}},{"type":"Feature","geometry":{"type":"Point","coordinates":[-171.833333333,-13.833333333]},"properties":{"countryLabel":"Samoa","capitalLabel":"Apia"}},{"type":"Feature","geometry":{"type":"Point","coordinates":[-61.844722222,17.121111111]},"properties":{"countryLabel":"Antigua-et-Barbuda","capitalLabel":"Saint John's"}},{"type":"Feature","geometry":{"type":"Point","coordinates":[-61.383333333,15.3]},"properties":{"countryLabel":"Dominique","capitalLabel":"Roseau"}},{"type":"Feature","geometry":{"type":"Point","coordinates":[147.149444444,-9.478888888]},"properties":{"countryLabel":"Papouasie-Nouvelle-Guinée","capitalLabel":"Port Moresby"}},{"type":"Feature","geometry":{"type":"Point","coordinates":[26.216666666,-29.1]},"properties":{"countryLabel":"Afrique du Sud","capitalLabel":"Bloemfontein"}},{"type":"Feature","geometry":{"type":"Point","coordinates":[168.316667,-17.73333]},"properties":{"countryLabel":"Vanuatu","capitalLabel":"Port-Vila"}},{"type":"Feature","geometry":{"type":"Point","coordinates":[178.433333333,-18.133333333]},"properties":{"countryLabel":"Fidji","capitalLabel":"Suva"}},{"type":"Feature","geometry":{"type":"Point","coordinates":[-61.516666666,10.666666666]},"properties":{"countryLabel":"Trinité-et-Tobago","capitalLabel":"Port-d'Espagne"}},{"type":"Feature","geometry":{"type":"Point","coordinates":[159.95,-9.433333]},"properties":{"countryLabel":"Îles Salomon","capitalLabel":"Honiara"}},{"type":"Feature","geometry":{"type":"Point","coordinates":[-62.734166666,17.298333333]},"properties":{"countryLabel":"Saint-Christophe-et-Niévès","capitalLabel":"Basseterre"}},{"type":"Feature","geometry":{"type":"Point","coordinates":[-61.22742,13.15527]},"properties":{"countryLabel":"Saint-Vincent-et-les-Grenadines","capitalLabel":"Kingstown"}},{"type":"Feature","geometry":{"type":"Point","coordinates":[-61.233333333,13.166666666]},"properties":{"countryLabel":"Saint-Vincent-et-les-Grenadines","capitalLabel":"Kingstown"}},{"type":"Feature","geometry":{"type":"Point","coordinates":[-61.753055555,12.0525]},"properties":{"countryLabel":"Grenade","capitalLabel":"Saint-Georges"}},{"type":"Feature","geometry":{"type":"Point","coordinates":[-60.983333333,14.016666666]},"properties":{"countryLabel":"Sainte-Lucie","capitalLabel":"Castries"}},{"type":"Feature","geometry":{"type":"Point","coordinates":[158.185,6.917777777]},"properties":{"countryLabel":"États fédérés de Micronésie","capitalLabel":"Palikir"}}]}